{
  "meta": {
    "title": "Chiens abandonnés — données 2024",
    "updated": "2025",
    "note": "Les données cantonales suisses sont des estimations proportionnelles à la population. Aucune répartition officielle par canton n'existe dans les rapports PSA/STS."
  },
  "global": {
    "stray_dogs_estimate": 200000000,
    "stray_dogs_low": 143000000,
    "stray_dogs_high": 200000000,
    "total_homeless_pets": 360000000,
    "source": "OMS / Mars Incorporated / FOUR PAWS",
    "year": 2024,
    "narrative": "200 millions. C'est le nombre de chiens errants estimés dans le monde — soit plus que la population du Brésil."
  },
  "europe": {
    "total_homeless_pets": 100000000,
    "source": "Institutions européennes / FOUR PAWS",
    "narrative": "En Europe seule, on estime à 100 millions le nombre d'animaux sans foyer. Mais derrière ce chiffre se cachent deux réalités très différentes.",
    "countries": [
      {
        "country": "Grèce",
        "code": "GR",
        "lat": 39.0, "lng": 21.8,
        "type": "stock",
        "dogs_per_100k": 2800,
        "total_estimate": 3000000,
        "note": "3 millions de chiens et chats errants (étude MDPI, déc. 2024)",
        "source": "MDPI 2024",
        "color_intensity": 1.0
      },
      {
        "country": "Roumanie",
        "code": "RO",
        "lat": 45.9, "lng": 24.9,
        "type": "stock",
        "dogs_per_100k": 2600,
        "total_estimate": 550000,
        "note": "500 000 à 600 000 chiens errants. Héritage historique du régime Ceaușescu (années 1980).",
        "source": "DogDesk / PETA UK",
        "color_intensity": 0.95
      },
      {
        "country": "Turquie",
        "code": "TR",
        "lat": 39.9, "lng": 32.9,
        "type": "stock",
        "dogs_per_100k": 4800,
        "total_estimate": 4000000,
        "note": "~4 millions de chiens errants. Loi de capture adoptée en juil. 2024.",
        "source": "Gouvernement turc / FOUR PAWS",
        "color_intensity": 1.0
      },
      {
        "country": "Ukraine",
        "code": "UA",
        "lat": 48.4, "lng": 31.2,
        "type": "stock",
        "dogs_per_100k": 2400,
        "total_estimate": 1000000,
        "note": "~1 million estimé en 2024 (avant-guerre : 200 000). Crise humanitaire → vague d'abandons.",
        "source": "FOUR PAWS 2024",
        "color_intensity": 0.85
      },
      {
        "country": "Serbie",
        "code": "RS",
        "lat": 44.0, "lng": 21.0,
        "type": "stock",
        "dogs_per_100k": 5700,
        "total_estimate": 400000,
        "note": "~400 000 chiens errants en 2024.",
        "source": "Estimation ONG",
        "color_intensity": 0.88
      },
      {
        "country": "Portugal",
        "code": "PT",
        "lat": 39.4, "lng": -8.2,
        "type": "stock",
        "dogs_per_100k": 990,
        "total_estimate": 101015,
        "note": "Premier recensement national 2023 : 101 015 chiens + 830 541 chats errants. 7,2 % des répondants ont été attaqués.",
        "source": "ICNF / Université d'Aveiro 2023",
        "color_intensity": 0.55
      },
      {
        "country": "Espagne",
        "code": "ES",
        "lat": 40.4, "lng": -3.7,
        "type": "flow",
        "dogs_per_100k": 370,
        "total_estimate": 173000,
        "note": "~173 000 chiens recueillis en 2023. Taux d'abandon le plus élevé d'Europe de l'Ouest. Loi 2023 : amendes jusqu'à 45 000€.",
        "source": "Fundación Affinity 2023",
        "color_intensity": 0.6
      },
      {
        "country": "France",
        "code": "FR",
        "lat": 46.2, "lng": 2.2,
        "type": "flow",
        "dogs_per_100k": 148,
        "total_estimate": 100000,
        "note": "~100 000 animaux abandonnés/an (toutes sources). SPA : 13 124 chiens pris en charge en 2023. Pic estival : 60 000 abandons en été.",
        "source": "SPA / 30 Millions d'Amis 2023",
        "color_intensity": 0.42
      },
      {
        "country": "Italie",
        "code": "IT",
        "lat": 42.5, "lng": 12.5,
        "type": "flow",
        "dogs_per_100k": 83,
        "total_estimate": 50000,
        "note": "~50 000 chiens abandonnés/an. Problème concentré dans le sud.",
        "source": "Carabinieri Forestali",
        "color_intensity": 0.35
      },
      {
        "country": "Allemagne",
        "code": "DE",
        "lat": 51.2, "lng": 10.5,
        "type": "flow",
        "dogs_per_100k": 120,
        "total_estimate": 100000,
        "note": "80 000 à 100 000 chiens en refuge/an. Attention : 18 502 chiens importés de Roumanie au 1er sem. 2023.",
        "source": "Deutscher Tierschutzbund",
        "color_intensity": 0.38
      },
      {
        "country": "Belgique",
        "code": "BE",
        "lat": 50.8, "lng": 4.5,
        "type": "flow",
        "dogs_per_100k": 520,
        "total_estimate": 60000,
        "note": "~165 abandons/jour. Wallonie : 8 502 chiens recueillis en 2022. 2023 qualifiée d'« année noire ».",
        "source": "Santévet / Bien-être Animal Wallonie",
        "color_intensity": 0.5
      },
      {
        "country": "Royaume-Uni",
        "code": "GB",
        "lat": 54.0, "lng": -2.5,
        "type": "flow",
        "dogs_per_100k": 54,
        "total_estimate": 36965,
        "note": "36 965 chiens pris en charge par les autorités locales (2023-2024). ~21 euthanasiés/jour faute de place.",
        "source": "Dogs Trust UK 2024",
        "color_intensity": 0.3
      },
      {
        "country": "Irlande",
        "code": "IE",
        "lat": 53.1, "lng": -8.2,
        "type": "flow",
        "dogs_per_100k": 131,
        "total_estimate": 7041,
        "note": "7 041 chiens via le système des pounds en 2024.",
        "source": "Dogs Trust Ireland 2024",
        "color_intensity": 0.32
      },
      {
        "country": "Suisse",
        "code": "CH",
        "lat": 46.8, "lng": 8.2,
        "type": "flow",
        "dogs_per_100k": 20,
        "total_estimate": 1826,
        "note": "1 826 chiens recueillis en 2024 (+111% vs 2023). Hausse alarmante liée aux achats impulsifs et aux coûts vétérinaires.",
        "source": "PSA / STS 2024",
        "color_intensity": 0.08,
        "highlight": true
      },
      {
        "country": "Pays-Bas",
        "code": "NL",
        "lat": 52.4, "lng": 5.3,
        "type": "flow",
        "dogs_per_100k": 0,
        "total_estimate": 0,
        "note": "Premier pays au monde à avoir quasiment éliminé les chiens errants. Microchip obligatoire, prise en charge immédiate.",
        "source": "Diverses sources",
        "color_intensity": 0.0
      }
    ]
  },
  "switzerland": {
    "year": 2024,
    "source": "PSA / STS 2024",
    "total_animals": 32079,
    "total_abandoned": 25403,
    "total_found": 5449,
    "total_seized": 1234,
    "dogs_abandoned_2024": 1826,
    "dogs_abandoned_2023": 865,
    "total_animals_change_2023": 572,
    "change_pct": 111,
    "dogs_per_100k": 20,
    "narrative_hook": "1 chien toutes les 4,8 heures. C'est le rythme auquel des chiens sont recueillis en Suisse.",
    "causes": [
      "Achats impulsifs — acquisition sans réflexion à long terme",
      "Coûts sous-estimés — frais vétérinaires et nourriture élevés",
      "Lassitude et problèmes de comportement — difficultés de gestion"
    ],
    "animals_note": "Les poissons et les chats restent les animaux les plus abandonnés, suivis des chiens et des rongeurs.",
    "note_cantons": "Il n'existe pas de données officielles PSA/STS par canton. Les valeurs ci-dessous sont des estimations proportionnelles à la population cantonale, à titre indicatif.",
    "cantons": [
      { "name": "Zurich",         "code": "ZH", "population_k": 1553, "dogs_estimate": 208, "lat": 47.3769, "lng": 8.5417 },
      { "name": "Berne",          "code": "BE", "population_k": 1048, "dogs_estimate": 140, "lat": 46.9481, "lng": 7.4474 },
      { "name": "Vaud",           "code": "VD", "population_k": 824,  "dogs_estimate": 110, "lat": 46.5197, "lng": 6.6323 },
      { "name": "Argovie",        "code": "AG", "population_k": 700,  "dogs_estimate": 94,  "lat": 47.3887, "lng": 8.0456 },
      { "name": "Saint-Gall",     "code": "SG", "population_k": 516,  "dogs_estimate": 69,  "lat": 47.4245, "lng": 9.3767 },
      { "name": "Genève",         "code": "GE", "population_k": 511,  "dogs_estimate": 68,  "lat": 46.2044, "lng": 6.1432 },
      { "name": "Lucerne",        "code": "LU", "population_k": 422,  "dogs_estimate": 56,  "lat": 47.0502, "lng": 8.3093 },
      { "name": "Tessin",         "code": "TI", "population_k": 350,  "dogs_estimate": 47,  "lat": 46.3317, "lng": 8.8004 },
      { "name": "Valais",         "code": "VS", "population_k": 348,  "dogs_estimate": 46,  "lat": 46.2323, "lng": 7.3608 },
      { "name": "Fribourg",       "code": "FR", "population_k": 335,  "dogs_estimate": 45,  "lat": 46.8065, "lng": 7.1615 },
      { "name": "Bâle-Campagne",  "code": "BL", "population_k": 295,  "dogs_estimate": 39,  "lat": 47.4418, "lng": 7.7666 },
      { "name": "Soleure",        "code": "SO", "population_k": 279,  "dogs_estimate": 37,  "lat": 47.2088, "lng": 7.5323 },
      { "name": "Schwyz",         "code": "SZ", "population_k": 163,  "dogs_estimate": 22,  "lat": 47.0207, "lng": 8.6530 },
      { "name": "Grisons",        "code": "GR", "population_k": 201,  "dogs_estimate": 27,  "lat": 46.6567, "lng": 9.5780 },
      { "name": "Thurgovie",      "code": "TG", "population_k": 287,  "dogs_estimate": 38,  "lat": 47.5535, "lng": 9.0558 },
      { "name": "Zoug",           "code": "ZG", "population_k": 126,  "dogs_estimate": 17,  "lat": 47.1662, "lng": 8.5156 },
      { "name": "Neuchâtel",      "code": "NE", "population_k": 175,  "dogs_estimate": 23,  "lat": 47.0000, "lng": 6.9333 },
      { "name": "Bâle-Ville",     "code": "BS", "population_k": 178,  "dogs_estimate": 24,  "lat": 47.5596, "lng": 7.5886 },
      { "name": "Schaffhouse",    "code": "SH", "population_k": 84,   "dogs_estimate": 11,  "lat": 47.6963, "lng": 8.6313 },
      { "name": "Jura",           "code": "JU", "population_k": 73,   "dogs_estimate": 10,  "lat": 47.3667, "lng": 7.3500 },
      { "name": "App. Rh.-Ext.",  "code": "AR", "population_k": 55,   "dogs_estimate": 7,   "lat": 47.3666, "lng": 9.3619 },
      { "name": "Obwald",         "code": "OW", "population_k": 38,   "dogs_estimate": 5,   "lat": 46.8779, "lng": 8.2515 },
      { "name": "Nidwald",        "code": "NW", "population_k": 43,   "dogs_estimate": 6,   "lat": 46.9263, "lng": 8.3844 },
      { "name": "Uri",            "code": "UR", "population_k": 37,   "dogs_estimate": 5,   "lat": 46.8804, "lng": 8.6343 },
      { "name": "App. Rh.-Int.",  "code": "AI", "population_k": 16,   "dogs_estimate": 2,   "lat": 47.3158, "lng": 9.4166 },
      { "name": "Glaris",         "code": "GL", "population_k": 40,   "dogs_estimate": 5,   "lat": 47.0403, "lng": 9.0682 }
    ],
    "intake_reasons": [
      { "reason": "Abandon volontaire", "count": 25403, "percentage": 79, "color": "#c49a3e" },
      { "reason": "Animal trouvé",      "count": 5449,  "percentage": 17, "color": "#B2A5F3" },
      { "reason": "Saisi / maltraitance", "count": 1234, "percentage": 4, "color": "#FF667A" }
    ],
    "annual_dogs": [
      { "year": 2019, "abandoned": 780,  "label": "Avant COVID" },
      { "year": 2020, "abandoned": 720,  "label": "COVID — boom des adoptions" },
      { "year": 2021, "abandoned": 890,  "label": "Retour à la normale" },
      { "year": 2022, "abandoned": 940,  "label": "Crise du coût de la vie" },
      { "year": 2023, "abandoned": 865,  "label": "" },
      { "year": 2024, "abandoned": 1826, "label": "+111 % en un an" }
    ]
  },
  "comparisons": {
    "narrative": "Remettons la Suisse en perspective.",
    "countries": [
      { "name": "Inde",       "total": 62000000, "per_100k": 4400, "type": "stock" },
      { "name": "Roumanie",   "total": 550000,   "per_100k": 2600, "type": "stock" },
      { "name": "Turquie",    "total": 4000000,  "per_100k": 4800, "type": "stock" },
      { "name": "Espagne",    "total": 173000,   "per_100k": 370,  "type": "flow"  },
      { "name": "France",     "total": 100000,   "per_100k": 148,  "type": "flow"  },
      { "name": "Belgique",   "total": 60000,    "per_100k": 520,  "type": "flow"  },
      { "name": "UK",         "total": 36965,    "per_100k": 54,   "type": "flow"  },
      { "name": "Suisse",     "total": 1009,     "per_100k": 11,   "type": "flow", "highlight": true },
      { "name": "Pays-Bas",   "total": 0,        "per_100k": 0,    "type": "flow"  }
    ]
  },
  "shelters": [
    { "name": "SPA – Refuge Vailly",                    "city": "Bernex",             "postal": "1233", "lat": 46.1745, "lng": 6.0775,  "phone": "+41 22 757 13 23", "website": "https://sgpa.ch/",                          "hours": "Lun–Ven 14h–17h, Dim 24h/24" },
    { "name": "Refuge de Darwyn",                       "city": "Sézenove",           "postal": "1233", "lat": 46.1700, "lng": 6.0820,  "phone": "+41 78 666 86 49", "website": "https://refuge-de-darwyn.ch/",              "hours": "Tous les jours 8h–17h" },
    { "name": "Center & Refuge SVPA",                   "city": "Lausanne",           "postal": "1000", "lat": 46.5100, "lng": 6.6300,  "phone": "+41 21 784 80 00", "website": "https://www.svpa.ch/",                      "hours": "Lun–Sam" },
    { "name": "SPA du Haut-Léman",                      "city": "Saint-Légier",       "postal": "1806", "lat": 46.4530, "lng": 6.8800,  "phone": "021 943 31 06",    "website": "https://spahautleman.ch/",                  "hours": "" },
    { "name": "SPA La Côte",                            "city": "Nyon",               "postal": "1260", "lat": 46.3790, "lng": 6.2170,  "phone": "022 361 61 15",    "website": "https://www.spalacote.ch/",                 "hours": "" },
    { "name": "SPA Valais — Refuge d'Uvrier",           "city": "Uvrier",             "postal": "1958", "lat": 46.2330, "lng": 7.4060,  "phone": "+41 79 902 11 67", "website": "https://www.spavalais.ch/",                 "hours": "" },
    { "name": "SPA Fribourg",                           "city": "Font",               "postal": "1473", "lat": 46.8020, "lng": 6.9930,  "phone": "+41 26 663 33 75", "website": "https://www.spafribourg.ch/",               "hours": "" },
    { "name": "SPA des Montagnes Neuchâteloises",       "city": "Le Locle",           "postal": "2400", "lat": 47.0520, "lng": 6.7450,  "phone": "032 931 88 78",    "website": "https://spa-mn.ch/",                        "hours": "" },
    { "name": "SPA La Chaux-de-Fonds",                  "city": "La Chaux-de-Fonds",  "postal": "2300", "lat": 47.0990, "lng": 6.8350,  "phone": "+41 32 968 64 24", "website": "http://www.spachauxdefonds.ch/",             "hours": "" },
    { "name": "Centre Animalier du Nord Vaudois",       "city": "Rances",             "postal": "1439", "lat": 46.7630, "lng": 6.5110,  "phone": "077 536 63 18",    "website": "http://www.ca-dnv.ch/",                     "hours": "" },
    { "name": "Tierheim Surber",                        "city": "Zurich",             "postal": "8046", "lat": 47.3900, "lng": 8.4870,  "phone": "+41 44 371 86 17", "website": "http://www.tierheim-surber.ch/",             "hours": "" },
    { "name": "Tierheim Strubeli",                      "city": "Volketswil",         "postal": "8604", "lat": 47.3930, "lng": 8.6840,  "phone": "+41 44 997 31 70", "website": "http://www.strubeli.ch/",                   "hours": "" },
    { "name": "Tierheim an der Ron",                    "city": "Root",               "postal": "6037", "lat": 47.1190, "lng": 8.3960,  "phone": "+41 41 450 00 03", "website": "http://www.tierschutz-luzern.ch/",          "hours": "" },
    { "name": "Tierheim Linth",                         "city": "Goldingen",          "postal": "8638", "lat": 47.2280, "lng": 8.9760,  "phone": "+41 55 536 41 88", "website": "https://tierheim-linth.ch/",                "hours": "" },
    { "name": "Tierheim MalMel",                        "city": "Hägglingen",         "postal": "5607", "lat": 47.4220, "lng": 8.2170,  "phone": "+41 79 944 38 34", "website": "http://www.malmel.ch/",                     "hours": "" },
    { "name": "Tierferienheim Stolzboden",              "city": "Sihlbrugg",          "postal": "6340", "lat": 47.2390, "lng": 8.5560,  "phone": "+41 44 764 00 14", "website": "http://tierferienheim-stolzboden.ch/",      "hours": "" },
    { "name": "Zürich Animal Shelter",                  "city": "Zürich",             "postal": "8045", "lat": 47.3685, "lng": 8.5195,  "phone": "+41 44 442 14 00", "website": "https://www.zuerchertierschutz.ch/",        "hours": "Lun–Jeu matin et après-midi" },
    { "name": "Tierheim Rosel",                         "city": "Biel/Bienne",        "postal": "2560", "lat": 47.1370, "lng": 7.2390,  "phone": "+41 32 341 85 85", "website": "http://www.tierschutzbiel.ch/",             "hours": "Lun–Ven 14h–17h, Sam–Dim matin" },
    { "name": "Stiftung TBB Schweiz",                   "city": "Bâle",               "postal": "4053", "lat": 47.5450, "lng": 7.6350,  "phone": "+41 61 378 78 78", "website": "https://www.tbb.ch/",                       "hours": "Lun–Sam 8h–12h, 13h30–16h45" },
    { "name": "Protection Suisse des Animaux PSA",      "city": "Bâle",               "postal": "4008", "lat": 47.5480, "lng": 7.5960,  "phone": "+41 61 365 99 99", "website": "https://tierschutz.com/fr/",                "hours": "Lun–Ven 9h–12h, 14h–17h" },
    { "name": "Oasis des Vétérans",                          "city": "Vaulruz",       "postal": "1627", "lat": 46.5980, "lng": 6.9820,  "phone": "0900 186 616",   "website": "https://oasis-des-veterans.org/",          "hours": "" },
    { "name": "Pension pour animaux",                        "city": "Le Landeron",   "postal": "2525", "lat": 47.0590, "lng": 7.0680,  "phone": "078 850 24 53",  "website": "",                                         "hours": "" },
    { "name": "Tierheim Gals",                               "city": "Gals",          "postal": "3238", "lat": 47.0420, "lng": 7.2280,  "phone": "032 338 24 91",  "website": "http://www.tierheimgals.ch/",               "hours": "" },
    { "name": "Fée Pour Eux",                                "city": "Dombresson",    "postal": "2054", "lat": 47.0000, "lng": 6.9420,  "phone": "079 392 35 07",  "website": "https://www.feepoureux.ch/",                "hours": "" },
    { "name": "SOS Chiens Polaires",                         "city": "Payerne",       "postal": "1530", "lat": 46.8200, "lng": 6.9280,  "phone": "079 533 12 74",  "website": "http://www.soschienspolaires.ch/",          "hours": "" },
    { "name": "Stiftung Tierrettungsdienst",                 "city": "Winkel",        "postal": "8185", "lat": 47.5020, "lng": 8.5240,  "phone": "044 864 44 00",  "website": "http://www.trd.ch/",                       "hours": "" },
    { "name": "Società Protezione Animali Locarno e Valli",  "city": "Gordola",       "postal": "6596", "lat": 46.1780, "lng": 8.8760,  "phone": "091 859 39 69",  "website": "http://www.spalv.ch/",                     "hours": "" },
    { "name": "Associazione Casa Orizzonti",                 "city": "Riviera",       "postal": "6526", "lat": 46.3480, "lng": 9.0050,  "phone": "078 656 88 46",  "website": "http://www.casaorizzonti.ch/",              "hours": "" }
  ]
}